[{"OBJECTID":1,"STN_NAME":"EUNOS MRT STATION","STN_NO":"EW7","Latitude":1.3197789516,"Longitude":103.9032524667},{"OBJECTID":2,"STN_NAME":"CHINESE GARDEN MRT STATION","STN_NO":"EW25","Latitude":1.3423528209,"Longitude":103.7325967381},{"OBJECTID":3,"STN_NAME":"KHATIB MRT STATION","STN_NO":"NS14","Latitude":1.4173833702,"Longitude":103.8329799077},{"OBJECTID":4,"STN_NAME":"KRANJI MRT STATION","STN_NO":"NS7","Latitude":1.4251776988,"Longitude":103.7621654109},{"OBJECTID":5,"STN_NAME":"REDHILL MRT STATION","STN_NO":"EW18","Latitude":1.2895627264,"Longitude":103.8168166701},{"OBJECTID":6,"STN_NAME":"YEW TEE MRT STATION","STN_NO":"NS5","Latitude":1.3975350178,"Longitude":103.7474051141},{"OBJECTID":7,"STN_NAME":"PIONEER MRT STATION","STN_NO":"EW28","Latitude":1.3375868822,"Longitude":103.6973215129},{"OBJECTID":8,"STN_NAME":"COMMONWEALTH MRT STATION","STN_NO":"EW20","Latitude":1.3024387353,"Longitude":103.7983045156},{"OBJECTID":9,"STN_NAME":"PAYA LEBAR MRT STATION","STN_NO":"EW8\/CC9","Latitude":1.3181120823,"Longitude":103.8930603553},{"OBJECTID":10,"STN_NAME":"SIMEI MRT STATION","STN_NO":"EW3","Latitude":1.3432028949,"Longitude":103.9533716942},{"OBJECTID":11,"STN_NAME":"TAMPINES MRT STATION","STN_NO":"EW2\/DT32","Latitude":1.3533013563,"Longitude":103.9451486886},{"OBJECTID":12,"STN_NAME":"ADMIRALTY MRT STATION","STN_NO":"NS10","Latitude":1.4405850011,"Longitude":103.8009880008},{"OBJECTID":13,"STN_NAME":"YISHUN MRT STATION","STN_NO":"NS13","Latitude":1.4294430808,"Longitude":103.8350050462},{"OBJECTID":14,"STN_NAME":"PASIR RIS MRT STATION","STN_NO":"EW1","Latitude":1.3729837736,"Longitude":103.9492681182},{"OBJECTID":15,"STN_NAME":"CLEMENTI MRT STATION","STN_NO":"EW23","Latitude":1.3149544924,"Longitude":103.7652988743},{"OBJECTID":16,"STN_NAME":"ALJUNIED MRT STATION","STN_NO":"EW9","Latitude":1.3164326117,"Longitude":103.8829060447},{"OBJECTID":17,"STN_NAME":"ANG MO KIO MRT STATION","STN_NO":"NS16","Latitude":1.3693473038,"Longitude":103.8499329939},{"OBJECTID":18,"STN_NAME":"EXPO MRT STATION","STN_NO":"CG1\/DT35","Latitude":1.3345497778,"Longitude":103.9615482107},{"OBJECTID":19,"STN_NAME":"CHOA CHU KANG MRT STATION","STN_NO":"NS4","Latitude":1.3853616928,"Longitude":103.7443409462},{"OBJECTID":20,"STN_NAME":"JURONG EAST MRT STATION","STN_NO":"EW24\/NS1","Latitude":1.3331526199,"Longitude":103.742286544},{"OBJECTID":21,"STN_NAME":"QUEENSTOWN MRT STATION","STN_NO":"EW19","Latitude":1.2948609328,"Longitude":103.8058843},{"OBJECTID":22,"STN_NAME":"TUAS LINK MRT STATION","STN_NO":"EW33","Latitude":1.3404637656,"Longitude":103.6368786783},{"OBJECTID":23,"STN_NAME":"GUL CIRCLE MRT STATION","STN_NO":"EW30","Latitude":1.3195052149,"Longitude":103.6605529559},{"OBJECTID":24,"STN_NAME":"WOODLANDS MRT STATION","STN_NO":"NS9\/TE2","Latitude":1.4368751282,"Longitude":103.7864851349},{"OBJECTID":25,"STN_NAME":"TUAS CRESCENT MRT STATION","STN_NO":"EW31","Latitude":1.3210265532,"Longitude":103.6490754783},{"OBJECTID":26,"STN_NAME":"KALLANG MRT STATION","STN_NO":"EW10","Latitude":1.3114889096,"Longitude":103.8713865414},{"OBJECTID":27,"STN_NAME":"TUAS WEST ROAD MRT STATION","STN_NO":"EW32","Latitude":1.329989089,"Longitude":103.639614056},{"OBJECTID":28,"STN_NAME":"BUONA VISTA MRT STATION","STN_NO":"EW21\/CC22","Latitude":1.3071834665,"Longitude":103.7901915352},{"OBJECTID":29,"STN_NAME":"DOVER MRT STATION","STN_NO":"EW22","Latitude":1.3114052929,"Longitude":103.7786378416},{"OBJECTID":30,"STN_NAME":"SEMBAWANG MRT STATION","STN_NO":"NS11","Latitude":1.4490508212,"Longitude":103.8200461405},{"OBJECTID":31,"STN_NAME":"KEMBANGAN MRT STATION","STN_NO":"EW6","Latitude":1.3210382489,"Longitude":103.9129493884},{"OBJECTID":32,"STN_NAME":"BUKIT BATOK MRT STATION","STN_NO":"NS2","Latitude":1.3490341086,"Longitude":103.7495667639},{"OBJECTID":34,"STN_NAME":"BOON LAY MRT STATION","STN_NO":"EW27","Latitude":1.3386040545,"Longitude":103.7060646226},{"OBJECTID":35,"STN_NAME":"BUKIT GOMBAK MRT STATION","STN_NO":"NS3","Latitude":1.3587618573,"Longitude":103.7518935021},{"OBJECTID":36,"STN_NAME":"MARSILING MRT STATION","STN_NO":"NS8","Latitude":1.4325144206,"Longitude":103.7740714613},{"OBJECTID":37,"STN_NAME":"BEDOK MRT STATION","STN_NO":"EW5","Latitude":1.3239799689,"Longitude":103.9299844946},{"OBJECTID":38,"STN_NAME":"JOO KOON MRT STATION","STN_NO":"EW29","Latitude":1.327717173,"Longitude":103.6783751429},{"OBJECTID":39,"STN_NAME":"LAKESIDE MRT STATION","STN_NO":"EW26","Latitude":1.3442592494,"Longitude":103.7209492685},{"OBJECTID":40,"STN_NAME":"TANAH MERAH MRT STATION","STN_NO":"EW4","Latitude":1.3271871345,"Longitude":103.9463464606},{"OBJECTID":41,"STN_NAME":"YIO CHU KANG MRT STATION","STN_NO":"NS15","Latitude":1.3817560461,"Longitude":103.8449472898},{"OBJECTID":42,"STN_NAME":"OASIS LRT STATION","STN_NO":"PE6","Latitude":1.4022866775,"Longitude":103.9127273556},{"OBJECTID":43,"STN_NAME":"SAM KEE LRT STATION","STN_NO":"PW1","Latitude":1.4096126851,"Longitude":103.9048315505},{"OBJECTID":44,"STN_NAME":"FARMWAY LRT STATION","STN_NO":"SW2","Latitude":1.3971701965,"Longitude":103.8893048104},{"OBJECTID":45,"STN_NAME":"KUPANG LRT STATION","STN_NO":"SW3","Latitude":1.3982128284,"Longitude":103.881256222},{"OBJECTID":46,"STN_NAME":"RENJONG LRT STATION","STN_NO":"SW8","Latitude":1.3867239215,"Longitude":103.8905394272},{"OBJECTID":47,"STN_NAME":"BUKIT PANJANG LRT STATION","STN_NO":"BP6","Latitude":1.377909898,"Longitude":103.7630136338},{"OBJECTID":48,"STN_NAME":"FAJAR LRT STATION","STN_NO":"BP10","Latitude":1.3845207962,"Longitude":103.7708085825},{"OBJECTID":50,"STN_NAME":"PUNGGOL LRT STATION","STN_NO":"PTC","Latitude":1.4051947013,"Longitude":103.902411912},{"OBJECTID":51,"STN_NAME":"SAMUDERA LRT STATION","STN_NO":"PW4","Latitude":1.4159017194,"Longitude":103.9021563164},{"OBJECTID":52,"STN_NAME":"NIBONG LRT STATION","STN_NO":"PW5","Latitude":1.4118704585,"Longitude":103.9003138177},{"OBJECTID":53,"STN_NAME":"SOO TECK LRT STATION","STN_NO":"PW7","Latitude":1.4050885849,"Longitude":103.8972096503},{"OBJECTID":54,"STN_NAME":"KADALOOR LRT STATION","STN_NO":"PE5","Latitude":1.3995848528,"Longitude":103.916486662},{"OBJECTID":55,"STN_NAME":"CORAL EDGE LRT STATION","STN_NO":"PE3","Latitude":1.3939092261,"Longitude":103.9125808548},{"OBJECTID":56,"STN_NAME":"THANGGAM LRT STATION","STN_NO":"SW4","Latitude":1.397318155,"Longitude":103.8756351565},{"OBJECTID":57,"STN_NAME":"KEAT HONG LRT STATION","STN_NO":"BP3","Latitude":1.378602766,"Longitude":103.7490555194},{"OBJECTID":58,"STN_NAME":"DAMAI LRT STATION","STN_NO":"PE7","Latitude":1.4052348362,"Longitude":103.9086035436},{"OBJECTID":59,"STN_NAME":"COVE LRT STATION","STN_NO":"PE1","Latitude":1.399281985,"Longitude":103.9059619441},{"OBJECTID":60,"STN_NAME":"RIVIERA LRT STATION","STN_NO":"PE4","Latitude":1.3945244958,"Longitude":103.916166059},{"OBJECTID":61,"STN_NAME":"SENJA LRT STATION","STN_NO":"BP13","Latitude":1.3826922958,"Longitude":103.762367226},{"OBJECTID":62,"STN_NAME":"JELAPANG LRT STATION","STN_NO":"BP12","Latitude":1.386703025,"Longitude":103.7645033382},{"OBJECTID":63,"STN_NAME":"PETIR LRT STATION","STN_NO":"BP7","Latitude":1.3777503338,"Longitude":103.766669},{"OBJECTID":64,"STN_NAME":"TECK WHYE LRT STATION","STN_NO":"BP4","Latitude":1.3766846794,"Longitude":103.7537122322},{"OBJECTID":65,"STN_NAME":"CHOA CHU KANG LRT STATION","STN_NO":"BP1","Latitude":1.38483636,"Longitude":103.7445537312},{"OBJECTID":66,"STN_NAME":"SOUTH VIEW LRT STATION","STN_NO":"BP2","Latitude":1.3802982872,"Longitude":103.7452918},{"OBJECTID":67,"STN_NAME":"LAYAR LRT STATION","STN_NO":"SW6","Latitude":1.3920798388,"Longitude":103.8800296003},{"OBJECTID":68,"STN_NAME":"KANGKAR LRT STATION","STN_NO":"SE4","Latitude":1.3839789018,"Longitude":103.9021739888},{"OBJECTID":69,"STN_NAME":"MERIDIAN LRT STATION","STN_NO":"PE2","Latitude":1.3969120531,"Longitude":103.908950217},{"OBJECTID":70,"STN_NAME":"CHENG LIM LRT STATION","STN_NO":"SW1","Latitude":1.3962776313,"Longitude":103.8937971808},{"OBJECTID":71,"STN_NAME":"PUNGGOL POINT LRT STATION","STN_NO":"PW3","Latitude":1.4168485205,"Longitude":103.9066507905},{"OBJECTID":72,"STN_NAME":"SUMANG LRT STATION","STN_NO":"PW6","Latitude":1.4084524256,"Longitude":103.898558454},{"OBJECTID":73,"STN_NAME":"FERNVALE LRT STATION","STN_NO":"SW5","Latitude":1.3918858877,"Longitude":103.8763086114},{"OBJECTID":74,"STN_NAME":"TONGKANG LRT STATION","STN_NO":"SW7","Latitude":1.389347953,"Longitude":103.8858441499},{"OBJECTID":76,"STN_NAME":"PENDING LRT STATION","STN_NO":"BP8","Latitude":1.3761428828,"Longitude":103.7712701786},{"OBJECTID":77,"STN_NAME":"TECK LEE LRT STATION","STN_NO":"PW2","Latitude":1.4127708939,"Longitude":103.9065776227},{"OBJECTID":80,"STN_NAME":"BANGKIT LRT STATION","STN_NO":"BP9","Latitude":1.3800178972,"Longitude":103.7726490726},{"OBJECTID":81,"STN_NAME":"BAKAU LRT STATION","STN_NO":"SE3","Latitude":1.3880927038,"Longitude":103.9054391042},{"OBJECTID":82,"STN_NAME":"RUMBIA LRT STATION","STN_NO":"SE2","Latitude":1.3914684968,"Longitude":103.9059735953},{"OBJECTID":83,"STN_NAME":"COMPASSVALE LRT STATION","STN_NO":"SE1","Latitude":1.3944930462,"Longitude":103.9004924506},{"OBJECTID":89,"STN_NAME":"RANGGUNG LRT STATION","STN_NO":"SE5","Latitude":1.3838854419,"Longitude":103.897537162},{"OBJECTID":90,"STN_NAME":"PHOENIX LRT STATION","STN_NO":"BP5","Latitude":1.3786188445,"Longitude":103.7580340984},{"OBJECTID":91,"STN_NAME":"SEGAR LRT STATION","STN_NO":"BP11","Latitude":1.3877721309,"Longitude":103.7695983968},{"OBJECTID":92,"STN_NAME":"SENGKANG LRT STATION","STN_NO":"STC","Latitude":1.3916093638,"Longitude":103.8954425837},{"OBJECTID":93,"STN_NAME":"BRAS BASAH MRT STATION","STN_NO":"CC2","Latitude":1.2968616865,"Longitude":103.8506673718},{"OBJECTID":94,"STN_NAME":"MACPHERSON MRT STATION","STN_NO":"CC10\/DT26","Latitude":1.3263453717,"Longitude":103.8902870314},{"OBJECTID":95,"STN_NAME":"CITY HALL MRT STATION","STN_NO":"EW13\/NS25","Latitude":1.2929362428,"Longitude":103.8525858923},{"OBJECTID":96,"STN_NAME":"TAMPINES EAST MRT STATION","STN_NO":"DT33","Latitude":1.356191483,"Longitude":103.9546344629},{"OBJECTID":97,"STN_NAME":"TAMPINES WEST MRT STATION","STN_NO":"DT31","Latitude":1.345515305,"Longitude":103.9384369714},{"OBJECTID":98,"STN_NAME":"GEYLANG BAHRU MRT STATION","STN_NO":"DT24","Latitude":1.321505838,"Longitude":103.8719006257},{"OBJECTID":99,"STN_NAME":"BENDEMEER MRT STATION","STN_NO":"DT23","Latitude":1.3136722325,"Longitude":103.8629779875},{"OBJECTID":100,"STN_NAME":"BENCOOLEN MRT STATION","STN_NO":"DT21","Latitude":1.2988642704,"Longitude":103.8503842549},{"OBJECTID":101,"STN_NAME":"HARBOURFRONT MRT STATION","STN_NO":"NE1\/CC29","Latitude":1.2654726399,"Longitude":103.8214430691},{"OBJECTID":104,"STN_NAME":"KENT RIDGE MRT STATION","STN_NO":"CC24","Latitude":1.2934960617,"Longitude":103.7844274606},{"OBJECTID":106,"STN_NAME":"PUNGGOL MRT STATION","STN_NO":"NE17","Latitude":1.4045467278,"Longitude":103.9020726384},{"OBJECTID":107,"STN_NAME":"TANJONG PAGAR MRT STATION","STN_NO":"EW15","Latitude":1.276521247,"Longitude":103.8458642293},{"OBJECTID":108,"STN_NAME":"ONE-NORTH MRT STATION","STN_NO":"CC23","Latitude":1.2997598786,"Longitude":103.7874575078},{"OBJECTID":110,"STN_NAME":"STADIUM MRT STATION","STN_NO":"CC6","Latitude":1.3028406296,"Longitude":103.8753503352},{"OBJECTID":111,"STN_NAME":"BUGIS MRT STATION","STN_NO":"EW12\/DT14","Latitude":1.3004650763,"Longitude":103.855706414},{"OBJECTID":112,"STN_NAME":"SOMERSET MRT STATION","STN_NO":"NS23","Latitude":1.3002600551,"Longitude":103.8390751623},{"OBJECTID":113,"STN_NAME":"ORCHARD MRT STATION","STN_NO":"NS22\/TE14","Latitude":1.3039810124,"Longitude":103.8322414521},{"OBJECTID":114,"STN_NAME":"JALAN BESAR MRT STATION","STN_NO":"DT22","Latitude":1.3054036422,"Longitude":103.8554770163},{"OBJECTID":115,"STN_NAME":"BAYFRONT MRT STATION","STN_NO":"DT16\/CE1","Latitude":1.2818737885,"Longitude":103.8590797651},{"OBJECTID":116,"STN_NAME":"SENGKANG MRT STATION","STN_NO":"NE16","Latitude":1.3916946261,"Longitude":103.8954846942},{"OBJECTID":117,"STN_NAME":"BUKIT BROWN MRT STATION","STN_NO":"CC18","Latitude":1.3337288823,"Longitude":103.8306895501},{"OBJECTID":118,"STN_NAME":"MOUNTBATTEN MRT STATION","STN_NO":"CC7","Latitude":1.3062019048,"Longitude":103.8825280808},{"OBJECTID":119,"STN_NAME":"KOVAN MRT STATION","STN_NO":"NE13","Latitude":1.3601791712,"Longitude":103.8850648563},{"OBJECTID":120,"STN_NAME":"FORT CANNING MRT STATION","STN_NO":"DT20","Latitude":1.2924789279,"Longitude":103.8443282696},{"OBJECTID":121,"STN_NAME":"FARRER ROAD MRT STATION","STN_NO":"CC20","Latitude":1.3175106119,"Longitude":103.8075861057},{"OBJECTID":123,"STN_NAME":"DOWNTOWN MRT STATION","STN_NO":"DT17","Latitude":1.2794461904,"Longitude":103.852840444},{"OBJECTID":125,"STN_NAME":"ESPLANADE MRT STATION","STN_NO":"CC3","Latitude":1.2933216076,"Longitude":103.8555041055},{"OBJECTID":126,"STN_NAME":"NICOLL HIGHWAY MRT STATION","STN_NO":"CC5","Latitude":1.2997668353,"Longitude":103.8636370185},{"OBJECTID":127,"STN_NAME":"CALDECOTT MRT STATION","STN_NO":"CC17\/TE9","Latitude":1.337674508,"Longitude":103.8395298208},{"OBJECTID":128,"STN_NAME":"MARINA BAY MRT STATION","STN_NO":"NS27\/TE20\/CE2","Latitude":1.2764273548,"Longitude":103.8545977775},{"OBJECTID":130,"STN_NAME":"LABRADOR PARK MRT STATION","STN_NO":"CC27","Latitude":1.2723327316,"Longitude":103.8029396204},{"OBJECTID":131,"STN_NAME":"CHINATOWN MRT STATION","STN_NO":"NE4\/DT19","Latitude":1.2843595782,"Longitude":103.8434267759},{"OBJECTID":134,"STN_NAME":"TAN KAH KEE MRT STATION","STN_NO":"DT8","Latitude":1.3258832089,"Longitude":103.8073222076},{"OBJECTID":135,"STN_NAME":"TIONG BAHRU MRT STATION","STN_NO":"EW17","Latitude":1.286193393,"Longitude":103.8270194309},{"OBJECTID":136,"STN_NAME":"HILLVIEW MRT STATION","STN_NO":"DT3","Latitude":1.3623448685,"Longitude":103.7674182545},{"OBJECTID":137,"STN_NAME":"KING ALBERT PARK MRT STATION","STN_NO":"DT6","Latitude":1.3356651208,"Longitude":103.7838066589},{"OBJECTID":138,"STN_NAME":"MATTAR MRT STATION","STN_NO":"DT25","Latitude":1.3268767147,"Longitude":103.8832475092},{"OBJECTID":139,"STN_NAME":"UBI MRT STATION","STN_NO":"DT27","Latitude":1.3299568257,"Longitude":103.899252525},{"OBJECTID":140,"STN_NAME":"BEAUTY WORLD MRT STATION","STN_NO":"DT5","Latitude":1.341223176,"Longitude":103.7757942853},{"OBJECTID":141,"STN_NAME":"KAKI BUKIT MRT STATION","STN_NO":"DT28","Latitude":1.3349673016,"Longitude":103.9084597345},{"OBJECTID":143,"STN_NAME":"BEDOK NORTH MRT STATION","STN_NO":"DT29","Latitude":1.3347421168,"Longitude":103.9179783298},{"OBJECTID":144,"STN_NAME":"DHOBY GHAUT MRT STATION","STN_NO":"NS24\/NE6\/CC1","Latitude":1.2987013066,"Longitude":103.8461151547},{"OBJECTID":146,"STN_NAME":"WOODLEIGH MRT STATION","STN_NO":"NE11","Latitude":1.3391900455,"Longitude":103.8708183094},{"OBJECTID":147,"STN_NAME":"NOVENA MRT STATION","STN_NO":"NS20","Latitude":1.3204407908,"Longitude":103.8438256188},{"OBJECTID":148,"STN_NAME":"SERANGOON MRT STATION","STN_NO":"NE12\/CC13","Latitude":1.3497078754,"Longitude":103.8735748469},{"OBJECTID":149,"STN_NAME":"BEDOK RESERVOIR MRT STATION","STN_NO":"DT30","Latitude":1.3366078298,"Longitude":103.9322346236},{"OBJECTID":150,"STN_NAME":"MARINA SOUTH PIER MRT STATION","STN_NO":"NS28","Latitude":1.2713367113,"Longitude":103.8628597696},{"OBJECTID":151,"STN_NAME":"FARRER PARK MRT STATION","STN_NO":"NE8","Latitude":1.3123598402,"Longitude":103.8541771415},{"OBJECTID":153,"STN_NAME":"BARTLEY MRT STATION","STN_NO":"CC12","Latitude":1.3428283377,"Longitude":103.8797589062},{"OBJECTID":154,"STN_NAME":"DAKOTA MRT STATION","STN_NO":"CC8","Latitude":1.3083826393,"Longitude":103.8886626039},{"OBJECTID":155,"STN_NAME":"PASIR PANJANG MRT STATION","STN_NO":"CC26","Latitude":1.2762135227,"Longitude":103.7913503132},{"OBJECTID":157,"STN_NAME":"CLARKE QUAY MRT STATION","STN_NO":"NE5","Latitude":1.2883860242,"Longitude":103.8465552093},{"OBJECTID":158,"STN_NAME":"BISHAN MRT STATION","STN_NO":"NS17\/CC15","Latitude":1.3508389877,"Longitude":103.8481439645},{"OBJECTID":160,"STN_NAME":"MARYMOUNT MRT STATION","STN_NO":"CC16","Latitude":1.348707263,"Longitude":103.8394231326},{"OBJECTID":161,"STN_NAME":"HAW PAR VILLA MRT STATION","STN_NO":"CC25","Latitude":1.2825421566,"Longitude":103.7818104513},{"OBJECTID":162,"STN_NAME":"LORONG CHUAN MRT STATION","STN_NO":"CC14","Latitude":1.351612171,"Longitude":103.864151938},{"OBJECTID":163,"STN_NAME":"LAVENDER MRT STATION","STN_NO":"EW11","Latitude":1.3073570201,"Longitude":103.8628292081},{"OBJECTID":166,"STN_NAME":"TAI SENG MRT STATION","STN_NO":"CC11","Latitude":1.3354333222,"Longitude":103.8881948612},{"OBJECTID":167,"STN_NAME":"ROCHOR MRT STATION","STN_NO":"DT13","Latitude":1.303916484,"Longitude":103.8524216807},{"OBJECTID":169,"STN_NAME":"LITTLE INDIA MRT STATION","STN_NO":"NE7\/DT12","Latitude":1.3068000253,"Longitude":103.8496469666},{"OBJECTID":170,"STN_NAME":"STEVENS MRT STATION","STN_NO":"DT10\/TE11","Latitude":1.320065557,"Longitude":103.8260244022},{"OBJECTID":171,"STN_NAME":"BUKIT PANJANG MRT STATION","STN_NO":"DT1","Latitude":1.3790021167,"Longitude":103.7615351147},{"OBJECTID":172,"STN_NAME":"CASHEW MRT STATION","STN_NO":"DT2","Latitude":1.3693698311,"Longitude":103.7646944223},{"OBJECTID":173,"STN_NAME":"SIXTH AVENUE MRT STATION","STN_NO":"DT7","Latitude":1.3307863874,"Longitude":103.7972463167},{"OBJECTID":174,"STN_NAME":"TOA PAYOH MRT STATION","STN_NO":"NS19","Latitude":1.3326289871,"Longitude":103.8475017643},{"OBJECTID":175,"STN_NAME":"WOODLANDS SOUTH MRT STATION","STN_NO":"TE3","Latitude":1.4272599787,"Longitude":103.7938508924},{"OBJECTID":176,"STN_NAME":"POTONG PASIR MRT STATION","STN_NO":"NE10","Latitude":1.3313795246,"Longitude":103.8690556653},{"OBJECTID":177,"STN_NAME":"HOUGANG MRT STATION","STN_NO":"NE14","Latitude":1.3712922917,"Longitude":103.8923805189},{"OBJECTID":178,"STN_NAME":"BOON KENG MRT STATION","STN_NO":"NE9","Latitude":1.319395706,"Longitude":103.8616865019},{"OBJECTID":179,"STN_NAME":"UPPER CHANGI MRT STATION","STN_NO":"DT34","Latitude":1.3417374839,"Longitude":103.9614717887},{"OBJECTID":180,"STN_NAME":"CHANGI AIRPORT MRT STATION","STN_NO":"CG2","Latitude":1.3573145453,"Longitude":103.9883646585},{"OBJECTID":182,"STN_NAME":"BRADDELL MRT STATION","STN_NO":"NS18","Latitude":1.3404716845,"Longitude":103.8467978454},{"OBJECTID":183,"STN_NAME":"BUANGKOK MRT STATION","STN_NO":"NE15","Latitude":1.3828778581,"Longitude":103.8931215648},{"OBJECTID":184,"STN_NAME":"PROMENADE MRT STATION","STN_NO":"CC4\/DT15","Latitude":1.2932180515,"Longitude":103.8609991559},{"OBJECTID":185,"STN_NAME":"BOTANIC GARDENS MRT STATION","STN_NO":"CC19\/DT9","Latitude":1.322110193,"Longitude":103.8149827503},{"OBJECTID":186,"STN_NAME":"RAFFLES PLACE MRT STATION","STN_NO":"EW14\/NS26","Latitude":1.2841256106,"Longitude":103.8514617121},{"OBJECTID":187,"STN_NAME":"HOLLAND VILLAGE MRT STATION","STN_NO":"CC21","Latitude":1.3118347904,"Longitude":103.7961918239},{"OBJECTID":188,"STN_NAME":"OUTRAM PARK MRT STATION","STN_NO":"EW16","Latitude":1.2814049781,"Longitude":103.8391264976},{"OBJECTID":189,"STN_NAME":"TELOK BLANGAH MRT STATION","STN_NO":"CC28","Latitude":1.2707532115,"Longitude":103.8097486368},{"OBJECTID":190,"STN_NAME":"TELOK AYER MRT STATION","STN_NO":"DT18","Latitude":1.2822895362,"Longitude":103.8483028062},{"OBJECTID":191,"STN_NAME":"NEWTON MRT STATION","STN_NO":"NS21\/DT11","Latitude":1.3123200996,"Longitude":103.8379852996},{"OBJECTID":193,"STN_NAME":"CANBERRA MRT STATION","STN_NO":"NS12","Latitude":1.4431366997,"Longitude":103.8297118003},{"OBJECTID":192,"STN_NAME":"WOODLANDS NORTH MRT STATION","STN_NO":"TE1","Latitude":1.4482924999,"Longitude":103.7856927},{"OBJECTID":199,"STN_NAME":"HUME MRT STATION","STN_NO":"DT4","Latitude":1.3545176075,"Longitude":103.7690992415},{"OBJECTID":198,"STN_NAME":"SPRINGLEAF MRT STATION","STN_NO":"TE4","Latitude":1.398160861,"Longitude":103.8180818499},{"OBJECTID":197,"STN_NAME":"LENTOR MRT STATION","STN_NO":"TE5","Latitude":1.3850619469,"Longitude":103.8364694869},{"OBJECTID":196,"STN_NAME":"MAYFLOWER MRT STATION","STN_NO":"TE6","Latitude":1.3720866387,"Longitude":103.836823932},{"OBJECTID":195,"STN_NAME":"BRIGHT HILL MRT STATION","STN_NO":"TE7","Latitude":1.3633080981,"Longitude":103.8329359578},{"OBJECTID":194,"STN_NAME":"UPPER THOMSON MRT STATION","STN_NO":"TE8","Latitude":1.3544118531,"Longitude":103.8329381689}]