[{"Title":"Tuo Yuan","Address":"27 Jalan Berseh, Central Singapore, Singapore, 200027","Food Court":"No","Type of Food":"Indonesian","Rating":"5.0\/5.0 (1 reviews)","Latitude":1.3066005,"Longitude":103.8577998},{"Title":"Vegetarian 85","Address":"861 North Bridge Road (at North Bridge Road Market and Food Centre), Central Singapore, Singapore, 198783","Food Court":"Yes","Type of Food":"Chinese","Rating":"4.5\/5.0 (2 reviews)","Latitude":1.3061409,"Longitude":103.8640993},{"Title":"Kunthaville","Address":"18 Veerasamy Rd, Central Singapore, Singapore, 207326","Food Court":"No","Type of Food":"Sri Lankan","Rating":"4.0\/5.0 (12 reviews)","Latitude":1.3074244,"Longitude":103.8534585},{"Title":"Clover Plant Based Kitchen & Bar","Address":"18 Pahang St (at Kampong Glam), Central Singapore, Singapore, 198615","Food Court":"No","Type of Food":"Mixed","Rating":"4.5\/5.0 (14 reviews)","Latitude":1.3022461,"Longitude":103.8611773},{"Title":"Moriya Izakaya","Address":"18 Pahang St, Level 2, Central Singapore, Singapore, 198615","Food Court":"No","Type of Food":"Japanese","Rating":"5.0\/5.0 (1 reviews)","Latitude":1.3022461,"Longitude":103.8611773},{"Title":"Chang Le Vegetarian Food","Address":"Blk 17, Upper Boon Keng Rd 01-63, Central Singapore, Singapore, 380017","Food Court":"No","Type of Food":"Chinese","Rating":"4.5\/5.0 (3 reviews)","Latitude":1.3150285,"Longitude":103.8716205},{"Title":"Pita Bakery","Address":"29 Bali Lane, Central Singapore, Singapore, 189865","Food Court":"No","Type of Food":"Mediterranean","Rating":"4.5\/5.0 (86 reviews)","Latitude":1.3012293,"Longitude":103.8584585},{"Title":"Pine Tree Cafe - Fortune Centre","Address":"190 Middle Rd, #02-13\/09, Fortune Centre, Central Singapore, Singapore, 188979","Food Court":"No","Type of Food":"Chinese","Rating":"4.5\/5.0 (38 reviews)","Latitude":1.3004225,"Longitude":103.8522867},{"Title":"Living Wholesome - Fortune Centre","Address":"190 Middle Rd, Unit 01-23 (at Fortune Centre), Central Singapore, Singapore, 188979","Food Court":"No","Type of Food":"Chinese","Rating":"5.0\/5.0 (11 reviews)","Latitude":1.3004225,"Longitude":103.8522867},{"Title":"Analogue Initiative","Address":"30 Victoria St, Unit 01-31 Chijmes, Central Singapore, Singapore, 187996","Food Court":"No","Type of Food":"Mixed","Rating":"4.5\/5.0 (41 reviews)","Latitude":1.2947968,"Longitude":103.8525734},{"Title":"Kampung Senang EcoHarmony Caf\u00e9","Address":"Block 106 Aljunied Crescent , 01-205, Central Singapore, Singapore, 380106","Food Court":"No","Type of Food":"Chinese","Rating":"4.5\/5.0 (19 reviews)","Latitude":1.319055,"Longitude":103.882901},{"Title":"Xiang Ji Miao Chu","Address":"Blk 17 Old Airport Road, Unit 01-05, Central Singapore, Singapore, 397972","Food Court":"No","Type of Food":"Chinese","Rating":"3.5\/5.0 (2 reviews)","Latitude":1.307344,"Longitude":103.8840177},{"Title":"Yi Sheng","Address":"Blk 17 Old Airport Rd, Unit 01-11, Central Singapore, Singapore, 397972","Food Court":"No","Type of Food":"Chinese","Rating":"4.0\/5.0 (4 reviews)","Latitude":1.307344,"Longitude":103.8840177},{"Title":"The Kind Bowl - Somerset","Address":"71 Killiney Rd, Central Singapore, Singapore, 239527","Food Court":"No","Type of Food":"Mixed","Rating":"4.5\/5.0 (67 reviews)","Latitude":1.2987505,"Longitude":103.8394168},{"Title":"Jeun VirtueFarm","Address":"Block 79A, Circuit Rd, Circuit Road Food Centre, Unit 01-84, Central Singapore, Singapore, 371079","Food Court":"Yes","Type of Food":"Chinese","Rating":"5.0\/5.0 (26 reviews)","Latitude":1.3278342,"Longitude":103.8871027},{"Title":"Makan Vegan","Address":"641 Geylang Road, #01-03 Lorong 33 Coffee Shop, Central Singapore, Singapore, 389571","Food Court":"Yes","Type of Food":"Chinese","Rating":"4.5\/5.0 (55 reviews)","Latitude":1.314474,"Longitude":103.8879775},{"Title":"VEGANBURG","Address":"11 Bidadari Park Dr, Unit #01-37 (at The Woodleigh Mal), Central Singapore, Singapore, 367803","Food Court":"No","Type of Food":"Western","Rating":"4.5\/5.0 (11 reviews)","Latitude":1.3387307,"Longitude":103.8716701},{"Title":"nomVnom Bistro - Clarke Quay","Address":"Central Clarke Quay, 6 Eu Tong Sen St, #03-105\/106\/107, Central Singapore, Singapore, 059817","Food Court":"No","Type of Food":"Western","Rating":"4.5\/5.0 (271 reviews)","Latitude":1.2888386,"Longitude":103.8465581},{"Title":"Toa Payoh Lorong 8 - Vegetarian Stall","Address":"#01-74 210 Lorong 8 Toa Payoh, Central Singapore, Singapore, 310210","Food Court":"Yes","Type of Food":"Chinese","Rating":"4.0\/5.0 (5 reviews)","Latitude":1.3402521,"Longitude":103.8543339},{"Title":"VeganPho","Address":"304 Orchard Rd, No01-67, Lucky Plaza, Level 1, Central Singapore, Singapore, 238863","Food Court":"No","Type of Food":"Vietnamese","Rating":"5.0\/5.0 (20 reviews)","Latitude":1.3045061,"Longitude":103.8339624},{"Title":"Genesis","Address":"2 Havelock Rd, Havelock II, B1-01, Central Singapore, Singapore, 059763","Food Court":"No","Type of Food":"Mixed","Rating":"4.5\/5.0 (81 reviews)","Latitude":1.2871507,"Longitude":103.8451538},{"Title":"Shu Vegetarian ","Address":"86 Market Street, Unit 03-05, Market Street Food Centre, CapitaSpring, Central Singapore, Singapore, 048947","Food Court":"Yes","Type of Food":"Mixed","Rating":"4.5\/5.0 (24 reviews)","Latitude":1.2840595,"Longitude":103.8498824},{"Title":"FIREFLY by Thunder Tree","Address":"101 Upper Cross St, People's Park Centre #B1-06, Central Singapore, Singapore, 058357","Food Court":"No","Type of Food":"Chinese","Rating":"4.5\/5.0 (38 reviews)","Latitude":1.2857701,"Longitude":103.8439802},{"Title":"SuManYuan","Address":"101 Upper Cross St, People's Park Centre, B1-02, Central Singapore, Singapore, 058357","Food Court":"No","Type of Food":"Chinese","Rating":"4.5\/5.0 (41 reviews)","Latitude":1.2857701,"Longitude":103.8439802},{"Title":"Yi Su Pin","Address":"101 Upper Cross St 01-04A, People's Park Centre, Central Singapore, Singapore, 058357","Food Court":"No","Type of Food":"Mixed","Rating":"4.5\/5.0 (18 reviews)","Latitude":1.2857701,"Longitude":103.8439802},{"Title":"Veggie 121","Address":"121 Telok Ayer St, Central Singapore, Singapore, 068590","Food Court":"No","Type of Food":"Chinese","Rating":"4.5\/5.0 (15 reviews)","Latitude":1.2812987,"Longitude":103.84814},{"Title":"Yi Xin Vegetarian","Address":"43 Temple St (at Chinatown), Central Singapore, Singapore, 058588","Food Court":"No","Type of Food":"Chinese","Rating":"4.5\/5.0 (118 reviews)","Latitude":1.2829796,"Longitude":103.8436914},{"Title":"The Flying Squirrel - Plant Based","Address":"33 Erskine Rd 01-03, Central Singapore, Singapore, 069333","Food Court":"No","Type of Food":"Japanese","Rating":"5.0\/5.0 (4 reviews)","Latitude":1.2808266,"Longitude":103.8453995},{"Title":"Uniquely Vegetarian","Address":"3 Shenton Way, Shenton House, #02-10, Central Singapore, Singapore, 068805","Food Court":"No","Type of Food":"Mixed","Rating":"5.0\/5.0 (13 reviews)","Latitude":1.2785452,"Longitude":103.8500901},{"Title":"NomVnom - Tai Seng","Address":"18 Tai Seng St, B1-02, Central Singapore, Singapore, 539775","Food Court":"No","Type of Food":"Western","Rating":"4.5\/5.0 (29 reviews)","Latitude":1.3363156,"Longitude":103.8888257},{"Title":"Simple Lifestyle Healthy Vegetarian Caf ","Address":"138 Robinson Rd, Oxley Tower, #02-34, Central Singapore, Singapore, 068901","Food Court":"No","Type of Food":"Mixed","Rating":"4.5\/5.0 (12 reviews)","Latitude":1.2787061,"Longitude":103.848419},{"Title":"Cultivate Caf ","Address":"2 Cook St, Maxwell Reserve, Central Singapore, Singapore, 078857","Food Court":"No","Type of Food":"Mediterranean","Rating":"4.0\/5.0 (28 reviews)","Latitude":1.2793297,"Longitude":103.8444042},{"Title":"Bishan Vegetarian","Address":"Blk 514 Bishan Street 13, Bishan Bus Interchange, Level 2, Central Singapore, Singapore, 570514","Food Court":"No","Type of Food":"Chinese","Rating":"4.0\/5.0 (17 reviews)","Latitude":1.350117,"Longitude":103.8497632},{"Title":"Sunny Vegetarian","Address":"Blk 6 Tanjong Pagar Plaza, Unit 02-13, Central Singapore, Singapore, 081006","Food Court":"No","Type of Food":"Chinese","Rating":"4.5\/5.0 (3 reviews)","Latitude":1.2766147,"Longitude":103.8431671},{"Title":"Ru Yi Vegetarian Food ","Address":"30 Seng Poh Rd, Tiong Bahru Market, Unit #02-26, Central Singapore, Singapore, 168898","Food Court":"Yes","Type of Food":"Chinese","Rating":"4.0\/5.0 (4 reviews)","Latitude":1.2847856,"Longitude":103.8321816},{"Title":"Loving Nature Fortunate Coffee Cafe","Address":"Blk 844, Sims Avenue Unit 01-700 Singapore, Singapore 400844, Central Singapore, Singapore","Food Court":"No","Type of Food":"Mixed","Rating":"5.0\/5.0 (17 reviews)","Latitude":1.3181835,"Longitude":103.9013113},{"Title":"iVegan - Katong","Address":"112 East Coast Rd, Unit #02-20 (at Level 2 of i12 Katong), Central Singapore, Singapore, 428802","Food Court":"No","Type of Food":"Mixed","Rating":"4.5\/5.0 (17 reviews)","Latitude":1.3052066,"Longitude":103.9050462},{"Title":"VEGANBURG - Eunos Flagship Outlet","Address":"44 Jalan Eunos, Central Singapore, Singapore, 419502","Food Court":"No","Type of Food":"Western","Rating":"4.5\/5.0 (110 reviews)","Latitude":1.3209795,"Longitude":103.9055126},{"Title":"The Plant Food","Address":"Thomson V Two #01-14, 11 Sin Ming Rd , Central Singapore, Singapore, S575629","Food Court":"No","Type of Food":"Mediterranean","Rating":"4.5\/5.0 (20 reviews)","Latitude":1.3534167,"Longitude":103.8355472},{"Title":"Xi Shi Fu Vegetarian","Address":"115 Bukit Merah View, #01-25, Central Singapore, Singapore, 151115","Food Court":"Yes","Type of Food":"Mixed","Rating":"4.5\/5.0 (3 reviews)","Latitude":1.2855045,"Longitude":103.8218233},{"Title":"Miao Xiang Vegetarian","Address":"Blk 32, Defu Lane 10, Soon Soon Lai Eating House, Stall No.9, Northeast Singapore, Singapore, 539213","Food Court":"Yes","Type of Food":"Chinese","Rating":"5.0\/5.0 (4 reviews)","Latitude":1.3510557,"Longitude":103.8917688},{"Title":"Ruyi Yuan","Address":"Blk 80 Redhill Lane, 80 Eating House #01-350, Central Singapore, Singapore, 150080","Food Court":"Yes","Type of Food":"Chinese","Rating":"4.2\/5.0 (240 reviews)","Latitude":1.2878073,"Longitude":103.818782},{"Title":"Xian Ting Vegetarian","Address":"Blk 105 Hougang Ave 1, Unit 02-49, Northeast Singapore, Singapore, 530105","Food Court":"No","Type of Food":"Chinese","Rating":"4.0\/5.0 (4 reviews)","Latitude":1.3540828,"Longitude":103.8901305},{"Title":"iVegan - Thomson Plaza","Address":"301 Upper Thomson Rd, Thomson Plaza Unit 01-109, Central Singapore, Singapore, 574408","Food Court":"No","Type of Food":"Mixed","Rating":"4.5\/5.0 (18 reviews)","Latitude":1.3546691,"Longitude":103.8309198},{"Title":"The Kind Bowl - Serangoon Garden","Address":"1 Maju Ave, B1-03, Northeast Singapore, Singapore, 556679","Food Court":"No","Type of Food":"Vietnamese","Rating":"4.5\/5.0 (8 reviews)","Latitude":1.365115,"Longitude":103.8651596},{"Title":"RuYi Yuan Vegetarian","Address":"Blk 340 Ang Mo Kio Ave 1, Northeast Singapore, Singapore, 560340","Food Court":"No","Type of Food":"Chinese","Rating":"4.0\/5.0 (1 reviews)","Latitude":1.3644505,"Longitude":103.8494641},{"Title":"Good Earth Vegetarian","Address":"Blk 453A, Ang Mo Kio Ave 10, Unit #01-30, Chong Boon Market & Food Centre, Northeast Singapore, Singapore, 561453","Food Court":"Yes","Type of Food":"Chinese","Rating":"4.5\/5.0 (2 reviews)","Latitude":1.3682478,"Longitude":103.8563617},{"Title":"Guan Yin Zai","Address":"Blk 226H Ang Mo Kio St 22 no. 01-19 (at Kebun Bahru Food Centre), Northeast Singapore, Singapore, 560226","Food Court":"Yes","Type of Food":"Chinese","Rating":"3.5\/5.0 (6 reviews)","Latitude":1.3671788,"Longitude":103.8401578},{"Title":"Tanglin Halt RuYi Vegetarian","Address":"38A Margaret Drive, Unit #02-36 (at Margaret Drive Hawker Centre), Central Singapore, Singapore, 142038","Food Court":"Yes","Type of Food":"Chinese","Rating":"4.5\/5.0 (3 reviews)","Latitude":1.2974259,"Longitude":103.8047105},{"Title":"Xian Long Vegetarian","Address":"Blk 158 Ang Mo Kio Ave 4, 01-590, Northeast Singapore, Singapore, 560158","Food Court":"No","Type of Food":"Chinese","Rating":"4.5\/5.0 (20 reviews)","Latitude":1.3747806,"Longitude":103.8389976},{"Title":"5Green Blossom","Address":"The Midtown, #01-44, 1187 Upper Serangoon Rd, Northeast Singapore, Singapore, 533971","Food Court":"No","Type of Food":"Chinese","Rating":"3.5\/5.0 (5 reviews)","Latitude":1.3705045,"Longitude":103.8952916},{"Title":"Yi Su Pin","Address":"Blk 632, Ang Mo Kio Ave 4, Northeast Singapore, Singapore, 560632","Food Court":"Yes","Type of Food":"Mixed","Rating":"4.5\/5.0 (5 reviews)","Latitude":1.3799269,"Longitude":103.8414324},{"Title":"WakaMama","Address":"3 S Buona Vista Rd, Unit 01-28 (at Viva Vista Mall), Central Singapore, Singapore, 118136","Food Court":"No","Type of Food":"Western","Rating":"5.0\/5.0 (9 reviews)","Latitude":1.2798033,"Longitude":103.7859097},{"Title":"Bao Su Zhai","Address":"1 Sengkang Square, Compass One Unit 04-11, Northeast Singapore, Singapore, 545078","Food Court":"Yes","Type of Food":"Chinese","Rating":"4.0\/5.0 (10 reviews)","Latitude":1.3920532,"Longitude":103.8950706},{"Title":"Living Wholesome ","Address":"51 Upper Bukit Timah Rd Stall 02-188, Bukit Timah Food and Market Centre, Central Singapore, Singapore, 588215","Food Court":"Yes","Type of Food":"Chinese","Rating":"4.5\/5.0 (16 reviews)","Latitude":1.3394525,"Longitude":103.7760074},{"Title":"Jian Kang Vegetarian ","Address":"Blk 352 Clementi Ave 2, Unit 01-153, Central Singapore, Singapore, 120352","Food Court":"No","Type of Food":"Chinese","Rating":"5.0\/5.0 (1 reviews)","Latitude":1.3142787,"Longitude":103.7713506},{"Title":"Mummy Yummy","Address":"20 Jalan Pari Burong, East Singapore, Singapore","Food Court":"No","Type of Food":"Chinese","Rating":"5.0\/5.0 (9 reviews)","Latitude":1.3337036,"Longitude":103.9485242},{"Title":"Chee Wei","Address":"Blk 610 Tampines North Dr, East Singapore, Singapore, 520610","Food Court":"No","Type of Food":"Chinese","Rating":"4.5\/5.0 (6 reviews)","Latitude":1.3646365,"Longitude":103.937174},{"Title":"Vegetarian Food","Address":"378 Clementi Ave 5, Central Singapore, Singapore, 120378","Food Court":"Yes","Type of Food":"Chinese","Rating":"4.2\/5.0 (9 reviews)","Latitude":1.3174121,"Longitude":103.767417},{"Title":"V4Vegetarian ","Address":"Blk 503 West Coast Dr, Unit 01-34, West Singapore, Singapore, 120503","Food Court":"Yes","Type of Food":"Chinese","Rating":"5.0\/5.0 (5 reviews)","Latitude":1.3118031,"Longitude":103.7597515},{"Title":"Ci En (Plant Based Vegetarian)","Address":"1 Punggol Drive, Unit #02-04, One Punggol Hawker Centre, Northeast Singapore, Singapore, 828629","Food Court":"Yes","Type of Food":"Indonesian","Rating":"4.5\/5.0 (10 reviews)","Latitude":1.4085216,"Longitude":103.9050343},{"Title":"Gokul Raas Vegetarian","Address":"1 Changi Business Park Cres, #01-21 Urbans @ Plaza 8, East Singapore, Singapore, 486025","Food Court":"No","Type of Food":"Mixed","Rating":"5.0\/5.0 (2 reviews)","Latitude":1.3333513,"Longitude":103.965669},{"Title":"Shi Song Vegetarian","Address":"Unit 01-02, 2 Bukit Panjang Ring Rd, Bukit Panjang Hawker Centre, West Singapore, Singapore, 679947","Food Court":"Yes","Type of Food":"Chinese","Rating":"4.5\/5.0 (16 reviews)","Latitude":1.3775975,"Longitude":103.7724916},{"Title":"729 Vegan","Address":"Blk 729, Yishun Street 71, Unit #01-117, North Singapore, Singapore, 760729","Food Court":"No","Type of Food":"Chinese","Rating":"4.5\/5.0 (27 reviews)","Latitude":1.4258529,"Longitude":103.8315984},{"Title":"Lei Cha Ci Su ","Address":"395A Bukit Batok West Ave 5 S651395, West Singapore, Singapore, 651395","Food Court":"No","Type of Food":"Chinese","Rating":"5.0\/5.0 (3 reviews)","Latitude":1.3639383,"Longitude":103.7518961},{"Title":"Tian Tian Chi Su","Address":"Blk 155, Bukit Batok St 11, #01-324 Broadway Coffeeshop, West Singapore, Singapore, 650155","Food Court":"No","Type of Food":"Chinese","Rating":"4.5\/5.0 (6 reviews)","Latitude":1.3480263,"Longitude":103.7435951},{"Title":"WellSmoocht","Address":"Blk 319 Jurong East St 31, Unit #01-58, West Singapore, Singapore, 600319","Food Court":"No","Type of Food":"Western","Rating":"4.5\/5.0 (77 reviews)","Latitude":1.3479895,"Longitude":103.7304583},{"Title":"EH Vegetarian","Address":"30 Sembawang Drive, Sun Plaza, Unit 03-1B, North Singapore, Singapore, 757713","Food Court":"No","Type of Food":"Chinese","Rating":"3.5\/5.0 (2 reviews)","Latitude":1.4481954,"Longitude":103.8195022},{"Title":"Poh Meng Vegetarian Food","Address":"3 Yung Sheng Road, Taman Jurong Market and Food Centre, Unit 03-143, West Singapore, Singapore, 618499","Food Court":"Yes","Type of Food":"Chinese","Rating":"4.5\/5.0 (3 reviews)","Latitude":1.3347211,"Longitude":103.7215838},{"Title":"Zhen Vegetarian ","Address":"90 Boon Lay Pl, Old Savoy Theatre, West Singapore, Singapore, 649884","Food Court":"No","Type of Food":"Chinese","Rating":"4.5\/5.0 (3 reviews)","Latitude":1.3473794,"Longitude":103.7119385},{"Title":"Ji Xiang Vegetarian","Address":"4 Third Lok Yang Rd, West Singapore, Singapore, 627999","Food Court":"No","Type of Food":"Chinese","Rating":"5.0\/5.0 (1 reviews)","Latitude":1.3261786,"Longitude":103.6897999},{"Title":"Komala Vilas","Address":"76-78 Serangoon Road, Singapore 217981","Food Court":"No","Type of Food":"Indian","Rating":"4.3\/5.0 (6319 reviews)","Latitude":1.30754,"Longitude":103.85144},{"Title":"Lotus Vegetarian Restaurant","Address":"103 Irrawaddy Road, #02-07, Royal Square @ Novena, Singapore 329566","Food Court":"No","Type of Food":"Asian & Chinese","Rating":"4.5\/5.0 (69 reviews)","Latitude":1.320159,"Longitude":103.844745},{"Title":"Love Handle","Address":"8 Ann Siang Hill, Singapore 069788","Food Court":"No","Type of Food":"Vegan Butcher & Restaurant","Rating":"4.0\/5.0 (50 reviews)","Latitude":1.280934,"Longitude":103.845476},{"Title":"Annalakshmi Restaurant","Address":"6A Shenton Way, #01-03 Downtown Gallery, Singapore 068815","Food Court":"No","Type of Food":"Indian","Rating":"4.2\/5.0 (120 reviews)","Latitude":1.276411,"Longitude":103.847187},{"Title":"Podi & Poriyal","Address":"486 Serangoon Rd, Singapore 218151","Food Court":"No","Type of Food":"Indian","Rating":"4.3\/5.0 (75 reviews)","Latitude":1.317047,"Longitude":103.85712},{"Title":"Green on Earth","Address":"386 Upper Bukit Timah Rd, Singapore 678043","Food Court":"No","Type of Food":"Chinese","Rating":"4.1\/5.0 (60 reviews)","Latitude":1.353358,"Longitude":103.76799},{"Title":"Genius Central","Address":"01-01 7-13 Amoy Street Far east square, Singapore 049949","Food Court":"No","Type of Food":"Vegan","Rating":"4.4\/5.0 (80 reviews)","Latitude":1.280604,"Longitude":103.846305},{"Title":"Joie","Address":"181 Orchard Road, 12-01 Orchard Central, Singapore 238896","Food Court":"No","Type of Food":"Vegetarian Fine Dining","Rating":"4.6\/5.0 (110 reviews)","Latitude":1.300684,"Longitude":103.837921},{"Title":"Original Sin","Address":"Block 43, Jln Merah Saga, #01-62, Chip Bee Gardens, Singapore 278115","Food Court":"No","Type of Food":"Mediterranean Vegetarian","Rating":"4.5\/5.0 (150 reviews)","Latitude":1.313744,"Longitude":103.796942},{"Title":"The Boneless Kitchen","Address":"1 Irving Place, #01-31 Commerze @ Irving, 369546","Food Court":"No","Type of Food":"Korean","Rating":"4.2\/5.0 (90 reviews)","Latitude":1.333157,"Longitude":103.887363},{"Title":"Murugan Idli Shop","Address":"76 Syed Alwi Rd, Singapore 207660","Food Court":"No","Type of Food":"South Indian","Rating":"4.3\/5.0 (200 reviews)","Latitude":1.307982,"Longitude":103.856914},{"Title":"Zhen Xiang Vegetarian","Address":"Blk 325 Woodlands St 32 #01-131, Singapore 730325","Food Court":"No","Type of Food":"Vegan-friendly, Chinese, Buffet, Take-out","Rating":"4.0\/5.0 (30 reviews)","Latitude":1.434,"Longitude":103.7855},{"Title":"Vege Story","Address":"Blk 892C Woodlands Dr 50 #01-02, Multi Storey Carpark, Singapore 732892","Food Court":"No","Type of Food":"Vegan-friendly, Chinese, Buffet, Fast food, Take-out","Rating":"4.1\/5.0 (45 reviews)","Latitude":1.4319,"Longitude":103.7958},{"Title":"SHU Vegetarian","Address":"Blk 354A Woodlands Ave 1 #01-01, Singapore 731354","Food Court":"No","Type of Food":"Vegan-friendly, Chinese, Fast food, Take-out","Rating":"4.0\/5.0 (35 reviews)","Latitude":1.4378,"Longitude":103.7847},{"Title":"Real Food","Address":"30A Yishun Central 1 #01-08, Tzu Chi Humanistic Youth Centre, Singapore 768796","Food Court":"No","Type of Food":"Vegan-friendly, Chinese, Western, Asian, Fusion","Rating":"4.5\/5.0 (85 reviews)","Latitude":1.426778893,"Longitude":103.838181},{"Title":"En Hui Vegetarian Food","Address":"4 Woodlands St 12 Unit 01-56, Marsiling Mall, Singapore 738623","Food Court":"No","Type of Food":"Vegan-friendly, Chinese, Fast food","Rating":"4.2\/5.0 (40 reviews)","Latitude":1.4304,"Longitude":103.7769},{"Title":"Nature Cafe","Address":"229 Joo Chiat Rd, #01-01, Singapore 427489","Food Court":"No","Type of Food":"Vegan-friendly, Chinese, Local","Rating":"4.5\/5.0 (55 reviews)","Latitude":1.3109,"Longitude":103.9037},{"Title":"New Fut Kai Vegetarian Restaurant","Address":"282 Jalan Besar, Singapore 208945","Food Court":"No","Type of Food":"Vegan-friendly, Chinese, Zi Char","Rating":"4.4\/5.0 (50 reviews)","Latitude":1.31,"Longitude":103.8586},{"Title":"Saute-san","Address":"180 Kitchener Rd, City Square Mall #03-23\/24, Singapore 208539","Food Court":"No","Type of Food":"Vegan-friendly, Japanese, Western, Local","Rating":"4.2\/5.0 (705 reviews)","Latitude":1.3112,"Longitude":103.8588},{"Title":"Tian Yi Vegetarian Food","Address":"527 Ang Mo Kio Avenue 10, Cheng San Market & Cooked Food Centre #01-143, Singapore 560527","Food Court":"No","Type of Food":"Vegan-friendly, Chinese, Zi Char","Rating":"4.1\/5.0 (50 reviews)","Latitude":1.372,"Longitude":103.848},{"Title":"Hua Jin Vegetarian Restaurant","Address":"359 Bukit Batok Street 31, Block 359, #01-393, Singapore 650359","Food Court":"No","Type of Food":"Vegan-friendly, Chinese, Zi Char","Rating":"4.0\/5.0 (45 reviews)","Latitude":1.3464,"Longitude":103.7527},{"Title":"VeganBurg","Address":"44 Jalan Eunos, Singapore 419502","Food Court":"No","Type of Food":"Vegan fast food","Rating":"4.5\/5.0 (150 reviews)","Latitude":1.3193,"Longitude":103.9042},{"Title":"The Kind Bowl","Address":"71 Killiney Rd, Singapore 239527","Food Court":"No","Type of Food":"Vietnamese","Rating":"4.6\/5.0 (100 reviews)","Latitude":1.2979,"Longitude":103.8381},{"Title":"Sufood","Address":"133 New Bridge Rd, #B2-25, Singapore 059413","Food Court":"No","Type of Food":"Vegetarian","Rating":"4.4\/5.0 (85 reviews)","Latitude":1.2841,"Longitude":103.8454},{"Title":"Whole Earth","Address":"76 Peck Seah St, Singapore 079331","Food Court":"No","Type of Food":"Thai and Peranakan","Rating":"4.7\/5.0 (200 reviews)","Latitude":1.2789,"Longitude":103.8443},{"Title":"Warung Ijo","Address":"337 Beach Rd, Singapore 199565","Food Court":"No","Type of Food":"Indonesian","Rating":"4.3\/5.0 (95 reviews)","Latitude":1.3018,"Longitude":103.8623},{"Title":"Botanict","Address":"390 Orchard Rd, Singapore 238871","Food Court":"No","Type of Food":"Asian Fusion","Rating":"4.5\/5.0 (70 reviews)","Latitude":1.3072,"Longitude":103.8335},{"Title":"Coco Veggie Nyonya Cuisine","Address":"96 Owen Rd, Singapore 218908","Food Court":"No","Type of Food":"Peranakan","Rating":"4.4\/5.0 (60 reviews)","Latitude":1.3132,"Longitude":103.8528},{"Title":"Victor Veggie","Address":"79A Circuit Road, #01-92, Singapore 370079","Food Court":"No","Type of Food":"Chinese","Rating":"4.1\/5.0 (50 reviews)","Latitude":1.3261,"Longitude":103.8841},{"Title":"iVege","Address":"79A Circuit Road, #01-79, Singapore 370079","Food Court":"No","Type of Food":"Chinese, Bibimbap","Rating":"4.0\/5.0 (40 reviews)","Latitude":1.3261,"Longitude":103.8841},{"Title":"Greendot (Bedok Mall)","Address":"311 New Upper Changi Rd, Unit B2-31\/32, Bedok Mall, Singapore 467360","Food Court":"No","Type of Food":"Vegan-friendly, Chinese, Fast food, Delivery, Take-out, Breakfast, Singaporean, Malaysian","Rating":"4.3\/5.0 (55 reviews)","Latitude":1.324,"Longitude":103.9315},{"Title":"So Green (Bedok)","Address":"445 Bedok North Street 1, Unit #01-02, Djitsun Mall @ Bedok, Singapore 469661","Food Court":"No","Type of Food":"Lacto, Chinese, Western, Take-out, Asian, Singaporean","Rating":"4.2\/5.0 (40 reviews)","Latitude":1.331,"Longitude":103.927},{"Title":"Saute Saranghae (Tampines)","Address":"Tampines Central 1, No 05-08\/09 10, East Singapore, Singapore 529536","Food Court":"No","Type of Food":"Lacto, Ovo, Fast food, Delivery, Take-out, Asian, Korean","Rating":"4.4\/5.0 (50 reviews)","Latitude":1.3537,"Longitude":103.9444},{"Title":"3 Treasures (Bedok)","Address":"Block 515 Bedok N Ave 2 01-211, East Singapore, Singapore 460515","Food Court":"No","Type of Food":"Vegan-friendly, Ovo, Chinese, Delivery, Take-out, Fusion, Singaporean","Rating":"4.0\/5.0 (35 reviews)","Latitude":1.3261,"Longitude":103.9302},{"Title":"Xie Bi An Xin (Tampines)","Address":"Block 828 Tampines St 81, Unit 01-254, East Singapore, Singapore 520828","Food Court":"No","Type of Food":"Ovo, Chinese, Take-out, Catering","Rating":"4.1\/5.0 (40 reviews)","Latitude":1.351,"Longitude":103.9325},{"Title":"Nature Cafe","Address":"12 Kallang Ave, Aperial Mall, #02-14\/15, Singapore 339511","Food Court":"No","Type of Food":"Vegan-friendly, Chinese, Local","Rating":"4.5\/5.0 (55 reviews)","Latitude":1.3125,"Longitude":103.8608},{"Title":"Kang Su Vegetarian (Sims Vista)","Address":"Sims Dr, #01-180 Block 45, Singapore 380045","Food Court":"No","Type of Food":"Chinese, Local","Rating":"4.2\/5.0 (45 reviews)","Latitude":1.318,"Longitude":103.8778},{"Title":"Metta Cafe","Address":"32 Simei St 1, Singapore 529950","Food Court":"No","Type of Food":"Vegan-friendly, Asian, Western, Local","Rating":"4.3\/5.0 (50 reviews)","Latitude":1.3427,"Longitude":103.949},{"Title":"Loving Hut","Address":"229 Joo Chiat Rd, #01-01, Singapore 427489","Food Court":"No","Type of Food":"Vegan-friendly, Chinese, Local","Rating":"4.4\/5.0 (60 reviews)","Latitude":1.3109,"Longitude":103.9037},{"Title":"Hakka Thunder Tea","Address":"505 Tampines Central 1, #01-337, Singapore 520505","Food Court":"No","Type of Food":"Vegan-friendly, Chinese, Local","Rating":"4.1\/5.0 (40 reviews)","Latitude":1.3521,"Longitude":103.9435},{"Title":"Genesis Vegan Restaurant","Address":"115 Owen Rd, Singapore 218922","Food Court":"No","Type of Food":"Vegan-friendly, Asian, Western","Rating":"4.3\/5.0 (65 reviews)","Latitude":1.3101,"Longitude":103.8496},{"Title":"Gokul Vegetarian Restaurant","Address":"19 Upper Dickson Rd, Singapore 207478","Food Court":"No","Type of Food":"Vegan-friendly, Indian","Rating":"4.5\/5.0 (100 reviews)","Latitude":1.3066,"Longitude":103.8538},{"Title":"The Peranakan","Address":"442 Orchard Rd, Singapore 238879","Food Court":"No","Type of Food":"Vegan-friendly, Peranakan","Rating":"4.4\/5.0 (75 reviews)","Latitude":1.3076,"Longitude":103.8323},{"Title":"Pita Bakery","Address":"29 Bali Ln, Singapore 189865","Food Court":"No","Type of Food":"Vegan-friendly, Middle Eastern","Rating":"4.3\/5.0 (50 reviews)","Latitude":1.3008,"Longitude":103.8585},{"Title":"The Social Kitchen","Address":"1 Jurong West Central 2, #03-25, Jurong Point Shopping Centre, Singapore 648886","Food Court":"No","Type of Food":"Vegan-friendly, Asian, Western","Rating":"4.1\/5.0 (35 reviews)","Latitude":1.3404,"Longitude":103.7064},{"Title":"Whole Earth","Address":"76 Peck Seah St, Singapore 079331","Food Court":"No","Type of Food":"Vegan-friendly, Thai, Peranakan","Rating":"4.7\/5.0 (200 reviews)","Latitude":1.2789,"Longitude":103.8443},{"Title":"Sufood","Address":"133 New Bridge Rd, #B2-25, Singapore 059413","Food Court":"No","Type of Food":"Vegan-friendly, Taiwanese","Rating":"4.4\/5.0 (85 reviews)","Latitude":1.2841,"Longitude":103.8454},{"Title":"Original Sin","Address":"Block 43, Jln Merah Saga, #01-62, Chip Bee Gardens, Singapore 278115","Food Court":"No","Type of Food":"Mediterranean","Rating":"4.5\/5.0 (150 reviews)","Latitude":1.3137,"Longitude":103.7969},{"Title":"SunnyChoice","Address":"434 Upper Bukit Timah Rd, The Rail Mall, Singapore 678060","Food Court":"No","Type of Food":"Vegan-friendly, Asian, Western","Rating":"4.3\/5.0 (251 reviews)","Latitude":1.3596,"Longitude":103.7678},{"Title":"Just Greens Vegetarian - Yishun Branch","Address":"418 Yishun Ave 11, Singapore 760418","Food Court":"No","Type of Food":"Vegan-friendly, Ovo, Chinese, Buffet","Rating":"4.0\/5.0 (4 Reviews)","Latitude":1.429546182,"Longitude":103.8457888},{"Title":"Zi Zai Vegetarian (Yishun)","Address":"236 Yishun Ring Rd, #01-1000","Food Court":"No","Type of Food":"Vegetarian","Rating":"4.0\/5.0 (850 revews)","Latitude":1.441901921,"Longitude":103.8385791},{"Title":"San De Vegetarian - Blk 747 Yishun","Address":"Blk 747 Yishun St 72, North Singapore, Singapore, 760747","Food Court":null,"Type of Food":"Vegan-friendly, Ovo, Chinese, Fast food, Take-out, Singaporean","Rating":"3.5\/5.0 (9 reviews)","Latitude":1.428512632,"Longitude":103.8335546}]